%time,field.header.seq,field.header.stamp,field.header.frame_id,field.velocity.x,field.velocity.y,field.velocity.z,field.velocity_covariance0,field.velocity_covariance1,field.velocity_covariance2,field.velocity_covariance3,field.velocity_covariance4,field.velocity_covariance5,field.velocity_covariance6,field.velocity_covariance7,field.velocity_covariance8,field.altitude
1607961631394758380,58,1607961631391681909,smarty200/dvl,0.00186852694128,0.000106394634394,0.00747265227846,0.04,0.0,0.0,0.0,0.04,0.0,0.0,0.0,0.04,15.0041065223
1607961631595516156,59,1607961631593003034,smarty200/dvl,-0.000837196516827,0.00245867548214,0.00982595923964,0.04,0.0,0.0,0.0,0.04,0.0,0.0,0.0,0.04,15.0058791016
1607961631797559526,60,1607961631794636964,smarty200/dvl,-0.00273349080481,0.00221209709861,0.0052052032049,0.04,0.0,0.0,0.0,0.04,0.0,0.0,0.0,0.04,15.0072271233
1607961631994285437,61,1607961631991852998,smarty200/dvl,-0.000698269551812,-0.00131996934588,-0.000846731259945,0.04,0.0,0.0,0.0,0.04,0.0,0.0,0.0,0.04,15.0075446997
1607961632193070996,62,1607961632191667079,smarty200/dvl,-0.00170726941051,0.00249685276404,-0.00626380361241,0.04,0.0,0.0,0.0,0.04,0.0,0.0,0.0,0.04,15.0066923617
1607961632393609544,63,1607961632391860008,smarty200/dvl,-0.00028496570749,0.00197430043434,-0.00841392941198,0.04,0.0,0.0,0.0,0.04,0.0,0.0,0.0,0.04,15.0050885754
1607961632594965258,64,1607961632592091083,smarty200/dvl,-0.00221881839078,0.000499552599481,-0.00624292386468,0.04,0.0,0.0,0.0,0.04,0.0,0.0,0.0,0.04,15.0034426387
1607961632796339284,65,1607961632792368888,smarty200/dvl,-0.00173326879724,-0.00160508711564,-0.0034875932548,0.04,0.0,0.0,0.0,0.04,0.0,0.0,0.0,0.04,15.0023773494
1607961632992672417,66,1607961632991424083,smarty200/dvl,0.000214823046399,-0.000344875291393,0.00473544546157,0.04,0.0,0.0,0.0,0.04,0.0,0.0,0.0,0.04,15.002227729
1607961633193140387,67,1607961633191737890,smarty200/dvl,-9.95004645537e-05,0.00186682156312,0.00580956949045,0.04,0.0,0.0,0.0,0.04,0.0,0.0,0.0,0.04,15.0030270126
1607961633394705035,68,1607961633391501903,smarty200/dvl,-0.00138710424598,0.0015263874332,0.00853907013767,0.04,0.0,0.0,0.0,0.04,0.0,0.0,0.0,0.04,15.0045145613
1607961633593140464,69,1607961633591550111,smarty200/dvl,0.00289357684553,0.00130642914048,0.00784163864659,0.04,0.0,0.0,0.0,0.04,0.0,0.0,0.0,0.04,15.0061450171
1607961633794791840,70,1607961633792376041,smarty200/dvl,-0.00149690008076,-0.00145999634142,0.00381273244625,0.04,0.0,0.0,0.0,0.04,0.0,0.0,0.0,0.04,15.0072382456
1607961633995157796,71,1607961633992147922,smarty200/dvl,0.000921030429015,-0.000342785261158,-0.000663185794579,0.04,0.0,0.0,0.0,0.04,0.0,0.0,0.0,0.04,15.0073003391
1607961634192214442,72,1607961634191378116,smarty200/dvl,0.00192033315251,-0.000115842405952,-0.0078607602889,0.04,0.0,0.0,0.0,0.04,0.0,0.0,0.0,0.04,15.0063141246
1607961634395953383,73,1607961634392189979,smarty200/dvl,0.000375971388923,-0.000746433299477,-0.00674181728107,0.04,0.0,0.0,0.0,0.04,0.0,0.0,0.0,0.04,15.0047511822
1607961634594638165,74,1607961634592225074,smarty200/dvl,-0.00098491351361,-0.00206058916782,-0.00404162830558,0.04,0.0,0.0,0.0,0.04,0.0,0.0,0.0,0.04,15.0032821676
1607961634799179107,75,1607961634794373035,smarty200/dvl,-0.000222665771258,0.000894310443635,-0.00244031605431,0.04,0.0,0.0,0.0,0.04,0.0,0.0,0.0,0.04,15.0024472854
1607961634995238476,76,1607961634992567062,smarty200/dvl,-0.000213983087861,0.000562735675734,0.00499041123199,0.04,0.0,0.0,0.0,0.04,0.0,0.0,0.0,0.04,15.0025058742
1607961635195939507,77,1607961635191852092,smarty200/dvl,0.000145378708704,0.00104760641472,0.00871643960351,0.04,0.0,0.0,0.0,0.04,0.0,0.0,0.0,0.04,15.0034297841
1607961635393529780,78,1607961635391741991,smarty200/dvl,-0.000704993248962,-0.000397073776269,0.0119674075097,0.04,0.0,0.0,0.0,0.04,0.0,0.0,0.0,0.04,15.0049057823
1607961635593795108,79,1607961635591916084,smarty200/dvl,-0.00149192661172,-0.000466692461434,0.0096361344197,0.04,0.0,0.0,0.0,0.04,0.0,0.0,0.0,0.04,15.006371784
1607961635798074519,80,1607961635792741060,smarty200/dvl,0.00261296155903,0.00167387631534,0.00216433657294,0.04,0.0,0.0,0.0,0.04,0.0,0.0,0.0,0.04,15.0072032188
1607961635993398765,81,1607961635991605043,smarty200/dvl,-0.00067425678803,0.0014378177552,-0.00524981866941,0.04,0.0,0.0,0.0,0.04,0.0,0.0,0.0,0.04,15.0070243807
1607961636194965898,82,1607961636192332983,smarty200/dvl,0.00322017888647,-0.000364548672193,-0.0044290084329,0.04,0.0,0.0,0.0,0.04,0.0,0.0,0.0,0.04,15.0059318175
1607961636393218365,83,1607961636391900062,smarty200/dvl,-0.00295103745511,-0.00111224350021,-0.00876609104615,0.04,0.0,0.0,0.0,0.04,0.0,0.0,0.0,0.04,15.0044341473
1607961636594407430,84,1607961636592521905,smarty200/dvl,-0.00168309599958,-0.000805744058953,-0.00482150979469,0.04,0.0,0.0,0.0,0.04,0.0,0.0,0.0,0.04,15.0031541629
1607961636792962025,85,1607961636792110919,smarty200/dvl,0.00236486008551,0.00147703486082,0.000593195557063,0.04,0.0,0.0,0.0,0.04,0.0,0.0,0.0,0.04,15.0025497697
1607961636996528406,86,1607961636993247032,smarty200/dvl,0.000672754690027,0.000740169319073,0.00438960045764,0.04,0.0,0.0,0.0,0.04,0.0,0.0,0.0,0.04,15.0028063547
1607961637195007362,87,1607961637191565036,smarty200/dvl,-0.00139315409989,-0.00114256541742,0.00756503021153,0.04,0.0,0.0,0.0,0.04,0.0,0.0,0.0,0.04,15.003833446
1607961637395173943,88,1607961637391876935,smarty200/dvl,-0.000529617525261,0.000870265417571,0.00829159213118,0.04,0.0,0.0,0.0,0.04,0.0,0.0,0.0,0.04,15.0052692908
1607961637595522444,89,1607961637591986894,smarty200/dvl,-0.00221636145004,-0.000903231182445,0.00490017005496,0.04,0.0,0.0,0.0,0.04,0.0,0.0,0.0,0.04,15.0065485587
1607961637797526134,90,1607961637792557001,smarty200/dvl,-0.00246351103906,0.00076126835767,0.00271565967233,0.04,0.0,0.0,0.0,0.04,0.0,0.0,0.0,0.04,15.0071170393
1607961637993259148,91,1607961637992290019,smarty200/dvl,0.000541187974014,-0.000779340531876,-0.0040635525494,0.04,0.0,0.0,0.0,0.04,0.0,0.0,0.0,0.04,15.0067199455
1607961638195002483,92,1607961638192795038,smarty200/dvl,-2.78717938684e-05,-0.00228617246657,-0.00662095137524,0.04,0.0,0.0,0.0,0.04,0.0,0.0,0.0,0.04,15.0055543905
1607961638393394233,93,1607961638392235994,smarty200/dvl,-0.00178962983534,0.00139380041662,-0.00626339090907,0.04,0.0,0.0,0.0,0.04,0.0,0.0,0.0,0.04,15.0041480635
1607961638593740603,94,1607961638592628955,smarty200/dvl,0.00138609251547,-0.000876130260764,-0.00333409759534,0.04,0.0,0.0,0.0,0.04,0.0,0.0,0.0,0.04,15.0030674867
1607961638795021832,95,1607961638791953086,smarty200/dvl,-0.00351708779385,0.00189968323136,-0.00098637077864,0.04,0.0,0.0,0.0,0.04,0.0,0.0,0.0,0.04,15.0026895818
1607961638995276502,96,1607961638992193937,smarty200/dvl,-0.00204293898843,-0.00113919163745,0.00398070926529,0.04,0.0,0.0,0.0,0.04,0.0,0.0,0.0,0.04,15.0031278865
1607961639193364709,97,1607961639191705942,smarty200/dvl,-0.0022951733732,-0.00227543720849,0.00755613320261,0.04,0.0,0.0,0.0,0.04,0.0,0.0,0.0,0.04,15.0042305099
1607961639394365751,98,1607961639392096996,smarty200/dvl,-1.66034991683e-05,-0.00253100860022,0.00249905935556,0.04,0.0,0.0,0.0,0.04,0.0,0.0,0.0,0.04,15.0055947506
1607961639593576521,99,1607961639592035055,smarty200/dvl,8.27204196102e-05,-0.000534712426785,0.00521643107509,0.04,0.0,0.0,0.0,0.04,0.0,0.0,0.0,0.04,15.0066678308
1607961639795886441,100,1607961639792475938,smarty200/dvl,-0.00210531788436,-0.00153967403448,-0.00212881409636,0.04,0.0,0.0,0.0,0.04,0.0,0.0,0.0,0.04,15.0069792473
1607961639995279163,101,1607961639991774082,smarty200/dvl,0.000275448783113,-0.00282844409518,-0.00638402025684,0.04,0.0,0.0,0.0,0.04,0.0,0.0,0.0,0.04,15.0063935371
1607961640193886299,102,1607961640192047119,smarty200/dvl,-0.00294399035703,-0.00158107163415,-0.00280821852073,0.04,0.0,0.0,0.0,0.04,0.0,0.0,0.0,0.04,15.0051914461
1607961640396108484,103,1607961640393161058,smarty200/dvl,-0.000889812614267,0.00105408963239,-0.00728719514878,0.04,0.0,0.0,0.0,0.04,0.0,0.0,0.0,0.04,15.0039016527
1607961640593220512,104,1607961640591896057,smarty200/dvl,-0.00135928006369,-0.00204419961424,-0.00352160610759,0.04,0.0,0.0,0.0,0.04,0.0,0.0,0.0,0.04,15.0030277487
1607961640796155784,105,1607961640792960882,smarty200/dvl,0.000231551120892,-1.4335586674e-05,-0.000692212622548,0.04,0.0,0.0,0.0,0.04,0.0,0.0,0.0,0.04,15.0028678891
1607961640995009379,106,1607961640991981029,smarty200/dvl,0.0006800321654,0.00127303291911,0.004202168627,0.04,0.0,0.0,0.0,0.04,0.0,0.0,0.0,0.04,15.0034660747
1607961641196364802,107,1607961641191802024,smarty200/dvl,0.00182515286199,0.000530514390877,0.00568429216927,0.04,0.0,0.0,0.0,0.04,0.0,0.0,0.0,0.04,15.0046120502
1607961641394087146,108,1607961641392168998,smarty200/dvl,-0.000989751638412,-0.00149600532359,0.00430915691082,0.04,0.0,0.0,0.0,0.04,0.0,0.0,0.0,0.04,15.0058729554
1607961641594614144,109,1607961641592134952,smarty200/dvl,-0.00289555952136,0.000700503444911,0.00584378739578,0.04,0.0,0.0,0.0,0.04,0.0,0.0,0.0,0.04,15.0067254556
1607961641795119488,110,1607961641791665077,smarty200/dvl,-0.000283917194548,-0.00132419868142,-0.00439249003498,0.04,0.0,0.0,0.0,0.04,0.0,0.0,0.0,0.04,15.0067932479
1607961641994460081,111,1607961641991817951,smarty200/dvl,0.000293366494187,-0.00124268717042,-0.00463291600751,0.04,0.0,0.0,0.0,0.04,0.0,0.0,0.0,0.04,15.0060539735
1607961642194389422,112,1607961642191729068,smarty200/dvl,-0.000952744556048,0.000624347681335,-0.0073665678488,0.04,0.0,0.0,0.0,0.04,0.0,0.0,0.0,0.04,15.0048524801
1607961642395862577,113,1607961642392080068,smarty200/dvl,-0.00329260169737,-0.000155104355156,-0.0075105410871,0.04,0.0,0.0,0.0,0.04,0.0,0.0,0.0,0.04,15.0037016666
1607961642592039900,114,1607961642591458082,smarty200/dvl,-0.00376427465949,0.000996989592939,-0.00244596336705,0.04,0.0,0.0,0.0,0.04,0.0,0.0,0.0,0.04,15.0030376889
1607961642796657420,115,1607961642795479059,smarty200/dvl,-0.000789263877873,0.000547653154097,0.00212864305621,0.04,0.0,0.0,0.0,0.04,0.0,0.0,0.0,0.04,15.0030827863
1607961642995393560,116,1607961642992132902,smarty200/dvl,-0.00147245011333,-0.000437052651901,0.00337600892952,0.04,0.0,0.0,0.0,0.04,0.0,0.0,0.0,0.04,15.0038140973
1607961643194185156,117,1607961643192709922,smarty200/dvl,-0.00462431673622,0.002651928179,0.00777846915288,0.04,0.0,0.0,0.0,0.04,0.0,0.0,0.0,0.04,15.0049684879
1607961643395261322,118,1607961643392185926,smarty200/dvl,-0.00182179697936,-0.0010174605979,0.00285605777191,0.04,0.0,0.0,0.0,0.04,0.0,0.0,0.0,0.04,15.006096422
1607961643595228810,119,1607961643591923952,smarty200/dvl,-0.00373470818213,0.00108861464002,0.0019427701075,0.04,0.0,0.0,0.0,0.04,0.0,0.0,0.0,0.04,15.0067206338
1607961643794848762,120,1607961643792551994,smarty200/dvl,0.00125237294522,-0.00085927580849,-0.00249014405881,0.04,0.0,0.0,0.0,0.04,0.0,0.0,0.0,0.04,15.0065656039
1607961643995674008,121,1607961643992790937,smarty200/dvl,-0.000953032861614,0.00136146268292,-0.00611194406051,0.04,0.0,0.0,0.0,0.04,0.0,0.0,0.0,0.04,15.0057113841
1607961644195965110,122,1607961644192116022,smarty200/dvl,0.0020309201557,-0.00261586781206,-0.00759857350528,0.04,0.0,0.0,0.0,0.04,0.0,0.0,0.0,0.04,15.0045462292
1607961644395298117,123,1607961644393376111,smarty200/dvl,-0.00103229298863,0.000143897616162,-0.00769665143382,0.04,0.0,0.0,0.0,0.04,0.0,0.0,0.0,0.04,15.0035528024
1607961644593642380,124,1607961644592142105,smarty200/dvl,-0.00112685759132,0.00143733105641,0.000263081472241,0.04,0.0,0.0,0.0,0.04,0.0,0.0,0.0,0.04,15.0030974686
1607961644795280220,125,1607961644791625022,smarty200/dvl,0.0014119848237,-0.000466622164953,-8.37843365066e-05,0.04,0.0,0.0,0.0,0.04,0.0,0.0,0.0,0.04,15.0033297685
1607961644996274063,126,1607961644992192029,smarty200/dvl,0.00259106553838,0.00205405476603,0.00546684859678,0.04,0.0,0.0,0.0,0.04,0.0,0.0,0.0,0.04,15.0041633972
1607961645196147100,127,1607961645191571950,smarty200/dvl,-0.0015157377216,-2.93198185119e-05,0.005239882647,0.04,0.0,0.0,0.0,0.04,0.0,0.0,0.0,0.04,15.0052903832
1607961645394074917,128,1607961645391562938,smarty200/dvl,-6.21435533044e-05,0.00346909148685,0.00333822876143,0.04,0.0,0.0,0.0,0.04,0.0,0.0,0.0,0.04,15.0062598994
1607961645595894298,129,1607961645592415094,smarty200/dvl,0.000619259065483,-0.000690365918109,-0.000422251610806,0.04,0.0,0.0,0.0,0.04,0.0,0.0,0.0,0.04,15.0066557548
1607961645796173857,130,1607961645793652057,smarty200/dvl,-0.00111660702497,0.000212519160087,-0.00346859853578,0.04,0.0,0.0,0.0,0.04,0.0,0.0,0.0,0.04,15.0063052511
1607961645992538257,131,1607961645991558074,smarty200/dvl,0.00244466447838,-0.00145170678284,-0.00534280858578,0.04,0.0,0.0,0.0,0.04,0.0,0.0,0.0,0.04,15.005376308
1607961646193048018,132,1607961646191854953,smarty200/dvl,-8.85860569216e-06,0.00182174074904,-0.00619037110939,0.04,0.0,0.0,0.0,0.04,0.0,0.0,0.0,0.04,15.004280165
1607961646393678868,133,1607961646392391920,smarty200/dvl,0.000663964065521,-0.00233078865776,-0.00221154805955,0.04,0.0,0.0,0.0,0.04,0.0,0.0,0.0,0.04,15.0034576726
1607961646592853554,134,1607961646591768026,smarty200/dvl,-0.00221781947259,-0.0021348172686,0.00173578496613,0.04,0.0,0.0,0.0,0.04,0.0,0.0,0.0,0.04,15.0032049251
1607961646795028883,135,1607961646792449951,smarty200/dvl,-0.00172716118235,0.000240954069836,0.00222475550035,0.04,0.0,0.0,0.0,0.04,0.0,0.0,0.0,0.04,15.0036022025
1607961646995287787,136,1607961646993884086,smarty200/dvl,0.000148985239254,-0.000938978385093,0.00470735796422,0.04,0.0,0.0,0.0,0.04,0.0,0.0,0.0,0.04,15.00450439
1607961647196381253,137,1607961647193058967,smarty200/dvl,-0.00214265390807,0.000682406232837,0.00267412221613,0.04,0.0,0.0,0.0,0.04,0.0,0.0,0.0,0.04,15.0055691802
1607961647394815536,138,1607961647392141103,smarty200/dvl,-0.000700624356132,-0.000890255115531,0.00402599577575,0.04,0.0,0.0,0.0,0.04,0.0,0.0,0.0,0.04,15.006360724
1607961647594529797,139,1607961647593234062,smarty200/dvl,-0.00100844770611,-0.000581783057175,-0.00408167085751,0.04,0.0,0.0,0.0,0.04,0.0,0.0,0.0,0.04,15.0065360801
1607961647796572976,140,1607961647791755914,smarty200/dvl,-0.00115865814253,0.00178435463894,-0.00465944743705,0.04,0.0,0.0,0.0,0.04,0.0,0.0,0.0,0.04,15.0060226776
1607961647997312644,141,1607961647993168115,smarty200/dvl,0.000281824921454,0.00132749485523,-0.00419679440897,0.04,0.0,0.0,0.0,0.04,0.0,0.0,0.0,0.04,15.0050589284
1607961648197131123,142,1607961648192122936,smarty200/dvl,0.00279810675671,-0.000512002420118,-0.00324631138206,0.04,0.0,0.0,0.0,0.04,0.0,0.0,0.0,0.04,15.004060144
1607961648393352754,143,1607961648392282009,smarty200/dvl,0.00163502866133,-0.000275024503241,-0.00208909654545,0.04,0.0,0.0,0.0,0.04,0.0,0.0,0.0,0.04,15.0034168355
1607961648594096046,144,1607961648592237949,smarty200/dvl,0.00067126021337,-0.00106628629036,0.00146206316259,0.04,0.0,0.0,0.0,0.04,0.0,0.0,0.0,0.04,15.0033558178
1607961648798065002,145,1607961648792324066,smarty200/dvl,0.00141050529128,-0.000542388447945,0.00195454145424,0.04,0.0,0.0,0.0,0.04,0.0,0.0,0.0,0.04,15.0038918162
1607961648994561346,146,1607961648992460966,smarty200/dvl,0.000717183124844,-0.000234840834574,0.00589629889472,0.04,0.0,0.0,0.0,0.04,0.0,0.0,0.0,0.04,15.004827174
1607961649193568500,147,1607961649191961050,smarty200/dvl,-0.00284241058304,-0.000363223384614,0.00398208265016,0.04,0.0,0.0,0.0,0.04,0.0,0.0,0.0,0.04,15.0057978549
1607961649393491966,148,1607961649391961097,smarty200/dvl,-0.00108864404558,0.00122262456086,0.00142646282169,0.04,0.0,0.0,0.0,0.04,0.0,0.0,0.0,0.04,15.0063989833
1607961649595283738,149,1607961649592540025,smarty200/dvl,-0.00277564170478,-0.00139934628208,-0.00243041353248,0.04,0.0,0.0,0.0,0.04,0.0,0.0,0.0,0.04,15.0063692884
1607961649797719964,150,1607961649792582988,smarty200/dvl,0.000754044127777,-0.00118650670182,-0.00217308689345,0.04,0.0,0.0,0.0,0.04,0.0,0.0,0.0,0.04,15.0057291217
1607961649996582785,151,1607961649992580890,smarty200/dvl,-0.000947144086041,0.00120761249596,-0.00390038125395,0.04,0.0,0.0,0.0,0.04,0.0,0.0,0.0,0.04,15.0047684634
1607961650195246950,152,1607961650191914081,smarty200/dvl,0.000484859147338,-0.00159833285719,-0.00600832514604,0.04,0.0,0.0,0.0,0.04,0.0,0.0,0.0,0.04,15.0038902025
1607961650395333361,153,1607961650392438888,smarty200/dvl,0.00162056916674,-0.000294439211953,-0.00346195542016,0.04,0.0,0.0,0.0,0.04,0.0,0.0,0.0,0.04,15.003428881
1607961650593844961,154,1607961650592621088,smarty200/dvl,0.000532834385852,0.00020683658016,0.00260002206612,0.04,0.0,0.0,0.0,0.04,0.0,0.0,0.0,0.04,15.0035440833
1607961650801918066,155,1607961650794430017,smarty200/dvl,0.00057312503343,0.000193811963917,0.00338747944671,0.04,0.0,0.0,0.0,0.04,0.0,0.0,0.0,0.04,15.0041892218
1607961650993191004,156,1607961650991604089,smarty200/dvl,0.00189446189839,0.000163906042367,0.00513834684776,0.04,0.0,0.0,0.0,0.04,0.0,0.0,0.0,0.04,15.0051222196
1607961651195073724,157,1607961651194359064,smarty200/dvl,-0.000368712895239,3.79033878216e-05,0.00358481143801,0.04,0.0,0.0,0.0,0.04,0.0,0.0,0.0,0.04,15.0059714211
1607961651394258390,158,1607961651391884088,smarty200/dvl,0.00077357572178,0.00209882542691,-0.000713206850009,0.04,0.0,0.0,0.0,0.04,0.0,0.0,0.0,0.04,15.0063774757
1607961651594801978,159,1607961651592407941,smarty200/dvl,-0.0012720796738,-0.00099227739761,-0.00262084202307,0.04,0.0,0.0,0.0,0.04,0.0,0.0,0.0,0.04,15.0061649004
1607961651796970888,160,1607961651792152881,smarty200/dvl,-2.9621031487e-05,0.00197651177959,-0.0020001654778,0.04,0.0,0.0,0.0,0.04,0.0,0.0,0.0,0.04,15.0054358344
1607961651994715908,161,1607961651992234945,smarty200/dvl,-0.00107490018765,0.000745699509035,-0.00622065813544,0.04,0.0,0.0,0.0,0.04,0.0,0.0,0.0,0.04,15.0045127203
1607961652195474831,162,1607961652193008899,smarty200/dvl,0.000104666297538,0.00277356103817,-0.00346040664003,0.04,0.0,0.0,0.0,0.04,0.0,0.0,0.0,0.04,15.0037724727
1607961652393299935,163,1607961652391493082,smarty200/dvl,-0.00237485891019,0.000955965355276,-0.000320975812625,0.04,0.0,0.0,0.0,0.04,0.0,0.0,0.0,0.04,15.0034905631
1607961652594289141,164,1607961652591839075,smarty200/dvl,-0.000769962933078,-0.000741642686341,0.00370456775595,0.04,0.0,0.0,0.0,0.04,0.0,0.0,0.0,0.04,15.003762147
1607961652798164902,165,1607961652795389890,smarty200/dvl,-0.000727941047108,0.000692755006875,0.00248791169693,0.04,0.0,0.0,0.0,0.04,0.0,0.0,0.0,0.04,15.0044844711
1607961652994398614,166,1607961652991535902,smarty200/dvl,0.00110912303071,-0.0017735493522,0.0034675128397,0.04,0.0,0.0,0.0,0.04,0.0,0.0,0.0,0.04,15.0053810043
1607961653195593413,167,1607961653192277908,smarty200/dvl,0.000741466958381,-0.000464778751899,0.00389285704259,0.04,0.0,0.0,0.0,0.04,0.0,0.0,0.0,0.04,15.0060872664
1607961653393521980,168,1607961653391695022,smarty200/dvl,0.00032166105734,3.94164158525e-05,-0.00202042229077,0.04,0.0,0.0,0.0,0.04,0.0,0.0,0.0,0.04,15.006301481
1607961653594016880,169,1607961653592230081,smarty200/dvl,0.000650670198928,0.000627087105704,-0.00267530921295,0.04,0.0,0.0,0.0,0.04,0.0,0.0,0.0,0.04,15.0059336134
1607961653796692060,170,1607961653792946100,smarty200/dvl,0.00245620173595,0.00131697483478,-0.00620420193233,0.04,0.0,0.0,0.0,0.04,0.0,0.0,0.0,0.04,15.0051534447
1607961653992622306,171,1607961653991413116,smarty200/dvl,0.00109057945797,0.000672793444422,-0.00639965193916,0.04,0.0,0.0,0.0,0.04,0.0,0.0,0.0,0.04,15.0042978024
1607961654194053741,172,1607961654191864013,smarty200/dvl,-0.00144146455708,-0.000201113693777,-0.00253124789254,0.04,0.0,0.0,0.0,0.04,0.0,0.0,0.0,0.04,15.003707192
1607961654395903519,173,1607961654392438888,smarty200/dvl,0.000426910819755,0.00279996172362,-0.000332215283863,0.04,0.0,0.0,0.0,0.04,0.0,0.0,0.0,0.04,15.0035969723
1607961654594033927,174,1607961654591758966,smarty200/dvl,0.0011949582081,0.00418265460218,0.00195078269051,0.04,0.0,0.0,0.0,0.04,0.0,0.0,0.0,0.04,15.0040012914
1607961654793907133,175,1607961654791661024,smarty200/dvl,0.00272113041748,-0.0022128459221,0.00279216064192,0.04,0.0,0.0,0.0,0.04,0.0,0.0,0.0,0.04,15.0047676256
1607961654994719941,176,1607961654992055892,smarty200/dvl,0.00309221220143,0.00163508714329,0.00187397760229,0.04,0.0,0.0,0.0,0.04,0.0,0.0,0.0,0.04,15.0055965548
1607961655193384671,177,1607961655192082881,smarty200/dvl,-0.00160782227365,-0.00131624202329,0.00283607164265,0.04,0.0,0.0,0.0,0.04,0.0,0.0,0.0,0.04,15.0061452972
1607961655393601328,178,1607961655391771078,smarty200/dvl,0.00120855599174,0.000756340222448,-0.00250867844139,0.04,0.0,0.0,0.0,0.04,0.0,0.0,0.0,0.04,15.0061783755
1607961655592501678,179,1607961655591564893,smarty200/dvl,-0.00211954786484,-0.000303351309057,-0.00286707786115,0.04,0.0,0.0,0.0,0.04,0.0,0.0,0.0,0.04,15.005686625
1607961655794096544,180,1607961655792676925,smarty200/dvl,0.000200624684773,-0.00116245171519,-0.00506564165372,0.04,0.0,0.0,0.0,0.04,0.0,0.0,0.0,0.04,15.0048914564
1607961655993110159,181,1607961655991508007,smarty200/dvl,0.00234977947643,-0.000252590043316,-0.0030486977846,0.04,0.0,0.0,0.0,0.04,0.0,0.0,0.0,0.04,15.0041279557
1607961656194297929,182,1607961656192959070,smarty200/dvl,0.00024150220897,-0.00035350093613,-0.000580900749342,0.04,0.0,0.0,0.0,0.04,0.0,0.0,0.0,0.04,15.0036927873
1607961656396262390,183,1607961656391469955,smarty200/dvl,-0.00156241131044,-0.00132832688734,0.00378235117087,0.04,0.0,0.0,0.0,0.04,0.0,0.0,0.0,0.04,15.0037417412
1607961656595919308,184,1607961656592607021,smarty200/dvl,-0.000223839323989,0.00312548684876,0.00510248540508,0.04,0.0,0.0,0.0,0.04,0.0,0.0,0.0,0.04,15.0042520697
1607961656797263505,185,1607961656792924880,smarty200/dvl,0.000813629582276,0.0016103785955,0.00432362559632,0.04,0.0,0.0,0.0,0.04,0.0,0.0,0.0,0.04,15.0050293139
1607961656995349714,186,1607961656993459939,smarty200/dvl,0.000546822898368,0.00224657366456,0.00623937501681,0.04,0.0,0.0,0.0,0.04,0.0,0.0,0.0,0.04,15.0057638602
1607961657195288630,187,1607961657193484067,smarty200/dvl,0.000597470968881,-0.0012165199833,0.00244613754624,0.04,0.0,0.0,0.0,0.04,0.0,0.0,0.0,0.04,15.0061478937
1607961657396688281,188,1607961657393213987,smarty200/dvl,0.000384098934561,-0.00132596520403,0.00019449538825,0.04,0.0,0.0,0.0,0.04,0.0,0.0,0.0,0.04,15.0060171406
1607961657594395086,189,1607961657591722011,smarty200/dvl,-0.000224427310684,-0.00173216799965,-0.00393149048452,0.04,0.0,0.0,0.0,0.04,0.0,0.0,0.0,0.04,15.0054350011
1607961657797506835,190,1607961657792200088,smarty200/dvl,0.000363261583132,0.00109167037514,-0.00111350811131,0.04,0.0,0.0,0.0,0.04,0.0,0.0,0.0,0.04,15.0046578813
1607961657997648552,191,1607961657992765903,smarty200/dvl,0.00155608935173,-0.0011758505386,-0.00409337171046,0.04,0.0,0.0,0.0,0.04,0.0,0.0,0.0,0.04,15.0040055254
1607961658192518312,192,1607961658191574096,smarty200/dvl,-0.00228426393222,0.00298836873305,0.000475126092592,0.04,0.0,0.0,0.0,0.04,0.0,0.0,0.0,0.04,15.0037260092
1607961658393718539,193,1607961658392236948,smarty200/dvl,-0.00258640997158,-0.00129835226056,0.00295884984114,0.04,0.0,0.0,0.0,0.04,0.0,0.0,0.0,0.04,15.003917301
1607961658597055386,194,1607961658593219041,smarty200/dvl,-0.000935673807184,-0.00141031201698,0.00276042454468,0.04,0.0,0.0,0.0,0.04,0.0,0.0,0.0,0.04,15.004504758
1607961658795881975,195,1607961658793210029,smarty200/dvl,0.000855967184542,-0.00170166688583,0.00195698416673,0.04,0.0,0.0,0.0,0.04,0.0,0.0,0.0,0.04,15.0052612482
1607961658995947134,196,1607961658995357990,smarty200/dvl,6.11059787356e-05,-0.00045107789092,0.00391917294266,0.04,0.0,0.0,0.0,0.04,0.0,0.0,0.0,0.04,15.0058801381
1607961659194794156,197,1607961659192135095,smarty200/dvl,0.0012661867611,0.00152265348611,-0.000285411155769,0.04,0.0,0.0,0.0,0.04,0.0,0.0,0.0,0.04,15.0060996955
1607961659393394183,198,1607961659392008066,smarty200/dvl,0.00269904877836,-0.000408793938718,-0.00227956455659,0.04,0.0,0.0,0.0,0.04,0.0,0.0,0.0,0.04,15.0058277845
1607961659594470506,199,1607961659592217922,smarty200/dvl,0.000794871050955,0.000846512815476,-0.00230583436598,0.04,0.0,0.0,0.0,0.04,0.0,0.0,0.0,0.04,15.0051891271
1607961659795942631,200,1607961659792377948,smarty200/dvl,0.00221057716642,-7.65280021488e-05,-0.00174438578665,0.04,0.0,0.0,0.0,0.04,0.0,0.0,0.0,0.04,15.0044590061
1607961660002168979,201,1607961659992398023,smarty200/dvl,-0.00121648890725,0.000155610847405,-0.00373604667883,0.04,0.0,0.0,0.0,0.04,0.0,0.0,0.0,0.04,15.0039309991
1607961660196149476,202,1607961660192747116,smarty200/dvl,-0.00176821251395,0.000853441949462,-0.000731520163476,0.04,0.0,0.0,0.0,0.04,0.0,0.0,0.0,0.04,15.0038021116
1607961660394778494,203,1607961660391946077,smarty200/dvl,0.00185544376157,-0.000784608429033,0.00378543325636,0.04,0.0,0.0,0.0,0.04,0.0,0.0,0.0,0.04,15.0041151997
1607961660595134602,204,1607961660592473030,smarty200/dvl,0.00335194177067,0.000127434674333,0.00158616737791,0.04,0.0,0.0,0.0,0.04,0.0,0.0,0.0,0.04,15.004749823
1607961660797158652,205,1607961660792243003,smarty200/dvl,-0.00020132812959,-0.00137921056806,0.00449237822068,0.04,0.0,0.0,0.0,0.04,0.0,0.0,0.0,0.04,15.005456661
1607961660992753253,206,1607961660991633892,smarty200/dvl,-0.000710978876828,0.000251339937241,0.00116994500783,0.04,0.0,0.0,0.0,0.04,0.0,0.0,0.0,0.04,15.0059449341
1607961661194933783,207,1607961661192097902,smarty200/dvl,0.000684658115559,-0.000638973806867,-0.000962236125637,0.04,0.0,0.0,0.0,0.04,0.0,0.0,0.0,0.04,15.0060072485
1607961661393481004,208,1607961661392491102,smarty200/dvl,-0.00159767710354,-0.000841036415728,-0.002639929162,0.04,0.0,0.0,0.0,0.04,0.0,0.0,0.0,0.04,15.0056207448
1607961661596455328,209,1607961661592328071,smarty200/dvl,-0.000321946440986,-0.00175677807557,-0.00451277358791,0.04,0.0,0.0,0.0,0.04,0.0,0.0,0.0,0.04,15.0049582709
1607961661799769236,210,1607961661792208909,smarty200/dvl,-0.00054534470776,-0.00124295714568,-0.00108700979239,0.04,0.0,0.0,0.0,0.04,0.0,0.0,0.0,0.04,15.0042992803
1607961661995279805,211,1607961661992556095,smarty200/dvl,0.0025708116598,0.000437441923449,-0.000477619160967,0.04,0.0,0.0,0.0,0.04,0.0,0.0,0.0,0.04,15.003903116
1607961662197163195,212,1607961662192550897,smarty200/dvl,0.000174840068809,-0.000402138619325,0.000945325329664,0.04,0.0,0.0,0.0,0.04,0.0,0.0,0.0,0.04,15.0039150614
1607961662395763113,213,1607961662391691923,smarty200/dvl,0.00137406096985,7.14445668609e-05,0.00130182340649,0.04,0.0,0.0,0.0,0.04,0.0,0.0,0.0,0.04,15.0043264627
1607961662595016515,214,1607961662592684984,smarty200/dvl,-0.00234224565721,-0.00210647550408,0.00517768851516,0.04,0.0,0.0,0.0,0.04,0.0,0.0,0.0,0.04,15.004978385
1607961662797130172,215,1607961662791695117,smarty200/dvl,0.00149759203182,0.00140078338854,0.000561546039911,0.04,0.0,0.0,0.0,0.04,0.0,0.0,0.0,0.04,15.0056106382
1607961662995264589,216,1607961662992082118,smarty200/dvl,-0.0013188796505,-0.0004591718249,0.00378877718267,0.04,0.0,0.0,0.0,0.04,0.0,0.0,0.0,0.04,15.0059600624
1607961663198074773,217,1607961663192281961,smarty200/dvl,0.000133106062909,-8.8795071237e-05,-0.00296730700384,0.04,0.0,0.0,0.0,0.04,0.0,0.0,0.0,0.04,15.0058785603
1607961663394904189,218,1607961663391913890,smarty200/dvl,0.000858528752656,-0.000736006229971,-0.00143865049704,0.04,0.0,0.0,0.0,0.04,0.0,0.0,0.0,0.04,15.0054063266
1607961663596763173,219,1607961663593308925,smarty200/dvl,0.000353173672426,0.00105210219667,-0.00402496008478,0.04,0.0,0.0,0.0,0.04,0.0,0.0,0.0,0.04,15.0047502636
1607961663797977580,220,1607961663792066097,smarty200/dvl,-0.00111142844024,-0.00167926575296,-0.00333617314366,0.04,0.0,0.0,0.0,0.04,0.0,0.0,0.0,0.04,15.0041813003
1607961663995065951,221,1607961663992691993,smarty200/dvl,-0.000519493611279,-0.000228707757497,-0.00239851047918,0.04,0.0,0.0,0.0,0.04,0.0,0.0,0.0,0.04,15.0039190207
1607961664198677409,222,1607961664192313909,smarty200/dvl,0.00137732325276,0.00205994788307,0.00129907837211,0.04,0.0,0.0,0.0,0.04,0.0,0.0,0.0,0.04,15.0040577851
1607961664393393611,223,1607961664392679929,smarty200/dvl,0.000221020190425,0.000165660471915,0.00373780914859,0.04,0.0,0.0,0.0,0.04,0.0,0.0,0.0,0.04,15.0045419818
1607961664593923431,224,1607961664592077016,smarty200/dvl,-0.00174679918469,0.00140751502786,0.00298873344132,0.04,0.0,0.0,0.0,0.04,0.0,0.0,0.0,0.04,15.0051826411
1607961664793949776,225,1607961664791966915,smarty200/dvl,-0.00229801898349,-0.000557151554451,0.000652035658848,0.04,0.0,0.0,0.0,0.04,0.0,0.0,0.0,0.04,15.005720322
1607961664993673687,226,1607961664991596937,smarty200/dvl,-0.000304014207243,0.000426548356055,-0.00235896632718,0.04,0.0,0.0,0.0,0.04,0.0,0.0,0.0,0.04,15.005929399
1607961665195551216,227,1607961665191833019,smarty200/dvl,0.000801118785962,0.00157604647504,-0.00120086435338,0.04,0.0,0.0,0.0,0.04,0.0,0.0,0.0,0.04,15.0057225895
1607961665396181183,228,1607961665393332004,smarty200/dvl,-0.000864203291246,-0.00188590487806,-0.00345356486208,0.04,0.0,0.0,0.0,0.04,0.0,0.0,0.0,0.04,15.0051942141
1607961665596369151,229,1607961665592022895,smarty200/dvl,-0.00202789071984,4.87266855651e-05,-0.00207155270681,0.04,0.0,0.0,0.0,0.04,0.0,0.0,0.0,0.04,15.0045712987
1607961665794435920,230,1607961665792068004,smarty200/dvl,-0.00099492756424,-8.25740583443e-05,4.57714634467e-05,0.04,0.0,0.0,0.0,0.04,0.0,0.0,0.0,0.04,15.0041058721
1607961665996561630,231,1607961665992414951,smarty200/dvl,-0.00204902428623,-0.00137365593685,0.000560335808301,0.04,0.0,0.0,0.0,0.04,0.0,0.0,0.0,0.04,15.003974456
1607961666198846985,232,1607961666193125963,smarty200/dvl,0.000753089927854,-0.0034829999606,-1.55583559016e-06,0.04,0.0,0.0,0.0,0.04,0.0,0.0,0.0,0.04,15.0042224645
1607961666398152529,233,1607961666392069101,smarty200/dvl,-0.00213064709158,-0.000198651243439,0.00180234915759,0.04,0.0,0.0,0.0,0.04,0.0,0.0,0.0,0.04,15.0047529174
1607961666595632074,234,1607961666592497110,smarty200/dvl,-0.000345160787472,-0.0028967664101,0.00224323410712,0.04,0.0,0.0,0.0,0.04,0.0,0.0,0.0,0.04,15.0053562231
1607961666798558669,235,1607961666791537046,smarty200/dvl,-0.00272074112566,0.000431385598221,0.000351594533917,0.04,0.0,0.0,0.0,0.04,0.0,0.0,0.0,0.04,15.0057849768
1607961666995326455,236,1607961666991683959,smarty200/dvl,-0.00226868921444,-0.00202808385183,-0.000908536668717,0.04,0.0,0.0,0.0,0.04,0.0,0.0,0.0,0.04,15.0058585585
1607961667195347792,237,1607961667192064046,smarty200/dvl,-0.000700959176532,0.00195392098253,-0.00158386692758,0.04,0.0,0.0,0.0,0.04,0.0,0.0,0.0,0.04,15.0055487117
1607961667393551645,238,1607961667392524003,smarty200/dvl,-0.00222930697137,0.00198838518432,-0.00343971747909,0.04,0.0,0.0,0.0,0.04,0.0,0.0,0.0,0.04,15.0049930756
1607961667594748174,239,1607961667592371940,smarty200/dvl,0.000895491708652,-0.000272882260702,-0.00234781838266,0.04,0.0,0.0,0.0,0.04,0.0,0.0,0.0,0.04,15.0044258348
1607961667795321438,240,1607961667791906118,smarty200/dvl,-0.000499183376233,0.000589958886069,0.00290484141501,0.04,0.0,0.0,0.0,0.04,0.0,0.0,0.0,0.04,15.0040721299
1607961667995430381,241,1607961667992418050,smarty200/dvl,0.000995717933104,0.000182345439364,2.8383960933e-05,0.04,0.0,0.0,0.0,0.04,0.0,0.0,0.0,0.04,15.004063981
1607961668192942387,242,1607961668191915988,smarty200/dvl,-0.000955545192105,0.00124554764108,0.00234006130208,0.04,0.0,0.0,0.0,0.04,0.0,0.0,0.0,0.04,15.0044008658
1607961668395318297,243,1607961668393186092,smarty200/dvl,0.000950651661313,-8.52034213879e-07,0.00171305239504,0.04,0.0,0.0,0.0,0.04,0.0,0.0,0.0,0.04,15.0049510889
1607961668596959732,244,1607961668592763900,smarty200/dvl,0.00184711120529,0.000639834806399,0.000863481624183,0.04,0.0,0.0,0.0,0.04,0.0,0.0,0.0,0.04,15.0054944652
1607961668793869225,245,1607961668792313098,smarty200/dvl,0.000134551122825,0.000832015215236,0.00182145812535,0.04,0.0,0.0,0.0,0.04,0.0,0.0,0.0,0.04,15.0058059197
1607961668997902033,246,1607961668992851972,smarty200/dvl,0.00307791620162,0.00155525616092,-0.001906060492,0.04,0.0,0.0,0.0,0.04,0.0,0.0,0.0,0.04,15.0057544932
1607961669194176198,247,1607961669192080974,smarty200/dvl,0.00212430078839,0.00201757913124,-0.00103085844746,0.04,0.0,0.0,0.0,0.04,0.0,0.0,0.0,0.04,15.0053662191
1607961669393621791,248,1607961669391518115,smarty200/dvl,-0.000469474031785,0.00114493855931,-0.00462652071047,0.04,0.0,0.0,0.0,0.04,0.0,0.0,0.0,0.04,15.0048102757
1607961669596501250,249,1607961669592869997,smarty200/dvl,2.41550130442e-05,-0.00205542169515,-0.00105309963059,0.04,0.0,0.0,0.0,0.04,0.0,0.0,0.0,0.04,15.0043165899
1607961669795739274,250,1607961669793716907,smarty200/dvl,-0.000340994825045,-0.000136859144196,-0.00178314759818,0.04,0.0,0.0,0.0,0.04,0.0,0.0,0.0,0.04,15.0040776995
1607961669996598383,251,1607961669991884946,smarty200/dvl,0.00192513414669,0.000803406328916,0.00293131256538,0.04,0.0,0.0,0.0,0.04,0.0,0.0,0.0,0.04,15.0041812149
1607961670193091675,252,1607961670191759109,smarty200/dvl,-0.00194847193185,0.00115224563776,0.00301032893554,0.04,0.0,0.0,0.0,0.04,0.0,0.0,0.0,0.04,15.0045846888
1607961670393676866,253,1607961670392031908,smarty200/dvl,0.000409468145508,0.000612841033124,0.00311725320135,0.04,0.0,0.0,0.0,0.04,0.0,0.0,0.0,0.04,15.0051293328
1607961670595800518,254,1607961670592880010,smarty200/dvl,-0.00137806345682,-0.00102359221261,0.00212467081499,0.04,0.0,0.0,0.0,0.04,0.0,0.0,0.0,0.04,15.0055945642
1607961670797907785,255,1607961670794547080,smarty200/dvl,-0.000960604952538,9.98350506947e-05,-0.00082405525028,0.04,0.0,0.0,0.0,0.04,0.0,0.0,0.0,0.04,15.0057863292
1607961670998151563,256,1607961670993573904,smarty200/dvl,0.000865759895815,0.000836406636748,-0.00114936891711,0.04,0.0,0.0,0.0,0.04,0.0,0.0,0.0,0.04,15.0056250412
1607961671195538364,257,1607961671192126989,smarty200/dvl,0.00202959073242,-0.00288205021054,-0.00272599572664,0.04,0.0,0.0,0.0,0.04,0.0,0.0,0.0,0.04,15.0051838808
1607961671397536384,258,1607961671392416000,smarty200/dvl,0.00262216659126,0.00230471022995,-0.00266989934007,0.04,0.0,0.0,0.0,0.04,0.0,0.0,0.0,0.04,15.0046516901
1607961671594765978,259,1607961671591658115,smarty200/dvl,0.00146058024072,0.00166863003247,0.00025353994467,0.04,0.0,0.0,0.0,0.04,0.0,0.0,0.0,0.04,15.0042446037
1607961671797598336,260,1607961671792907953,smarty200/dvl,-0.00182671047957,5.2384384125e-06,-0.00319723804494,0.04,0.0,0.0,0.0,0.04,0.0,0.0,0.0,0.04,15.0041188917
1607961671993514604,261,1607961671992222070,smarty200/dvl,-0.000468026498194,0.000710661860556,-0.00106018604575,0.04,0.0,0.0,0.0,0.04,0.0,0.0,0.0,0.04,15.0043191178
1607961672193556194,262,1607961672192266941,smarty200/dvl,0.00343939304788,0.00226137933431,0.0043299569339,0.04,0.0,0.0,0.0,0.04,0.0,0.0,0.0,0.04,15.0047659186
1607961672394288625,263,1607961672392196893,smarty200/dvl,-0.00049573260143,0.00111643504257,0.00348512204674,0.04,0.0,0.0,0.0,0.04,0.0,0.0,0.0,0.04,15.0052817997
1607961672595424279,264,1607961672592322111,smarty200/dvl,0.00245600734629,-0.00110726691949,0.00377681865773,0.04,0.0,0.0,0.0,0.04,0.0,0.0,0.0,0.04,15.0056556208
1607961672799132839,265,1607961672793080091,smarty200/dvl,0.000117021340873,-0.000996448290069,0.00331610114912,0.04,0.0,0.0,0.0,0.04,0.0,0.0,0.0,0.04,15.0057309533
1607961672997278312,266,1607961672993038892,smarty200/dvl,0.00636974482163,-0.000855888926777,-0.00252717352306,0.04,0.0,0.0,0.0,0.04,0.0,0.0,0.0,0.04,15.0054784558
1607961673193746935,267,1607961673191652059,smarty200/dvl,-0.000473020933815,-0.000551354401043,-0.00422298975572,0.04,0.0,0.0,0.0,0.04,0.0,0.0,0.0,0.04,15.0050095863
1607961673393709651,268,1607961673391911029,smarty200/dvl,1.23120410539e-05,0.0013013733521,-0.000203246451255,0.04,0.0,0.0,0.0,0.04,0.0,0.0,0.0,0.04,15.0045216139
1607961673594717794,269,1607961673592135906,smarty200/dvl,0.00143912434584,-0.00292271676058,0.000425230577332,0.04,0.0,0.0,0.0,0.04,0.0,0.0,0.0,0.04,15.0042093541
1607961673795230630,270,1607961673792479991,smarty200/dvl,0.000271081021607,0.00135126989057,0.00205581351638,0.04,0.0,0.0,0.0,0.04,0.0,0.0,0.0,0.04,15.0041909212
1607961673993909104,271,1607961673992638111,smarty200/dvl,0.00149210785453,0.000114035876523,0.00308191738796,0.04,0.0,0.0,0.0,0.04,0.0,0.0,0.0,0.04,15.0044702948
1607961674194632135,272,1607961674192509889,smarty200/dvl,0.00133655244173,-0.00205841355312,0.00266626163227,0.04,0.0,0.0,0.0,0.04,0.0,0.0,0.0,0.04,15.0049371644
1607961674393624728,273,1607961674391704082,smarty200/dvl,0.00172534820814,0.000168391707782,0.00347087201472,0.04,0.0,0.0,0.0,0.04,0.0,0.0,0.0,0.04,15.0054041742
1607961674594040681,274,1607961674592714071,smarty200/dvl,0.000466326825985,-0.00294166366726,8.80059945977e-06,0.04,0.0,0.0,0.0,0.04,0.0,0.0,0.0,0.04,15.0056785698
1607961674799504230,275,1607961674794961929,smarty200/dvl,0.0023266442322,0.00180374127855,-0.00162539299872,0.04,0.0,0.0,0.0,0.04,0.0,0.0,0.0,0.04,15.0056457544
1607961674993883266,276,1607961674991511106,smarty200/dvl,-0.000393738554528,-0.00168089584062,-0.00378857061263,0.04,0.0,0.0,0.0,0.04,0.0,0.0,0.0,0.04,15.005322959
1607961675196602675,277,1607961675192691087,smarty200/dvl,0.00231763138796,-0.00132606734609,-0.000816720351083,0.04,0.0,0.0,0.0,0.04,0.0,0.0,0.0,0.04,15.0048500808
1607961675394665976,278,1607961675391520977,smarty200/dvl,0.00161296056541,-0.000464167518586,-0.000202654822041,0.04,0.0,0.0,0.0,0.04,0.0,0.0,0.0,0.04,15.0044227518
1607961675598131952,279,1607961675592937946,smarty200/dvl,-0.00109440937784,-0.000184468776434,-0.00010045406785,0.04,0.0,0.0,0.0,0.04,0.0,0.0,0.0,0.04,15.0042089136
1607961675796736062,280,1607961675792705059,smarty200/dvl,0.00139411693617,0.000301201298332,0.00256446669407,0.04,0.0,0.0,0.0,0.04,0.0,0.0,0.0,0.04,15.0042881434
1607961675995110558,281,1607961675992357969,smarty200/dvl,-0.00185638728485,-0.00451767929817,0.00426679297832,0.04,0.0,0.0,0.0,0.04,0.0,0.0,0.0,0.04,15.0046273117
1607961676195246914,282,1607961676194273948,smarty200/dvl,0.00169532931465,0.00206120319622,0.000783059640673,0.04,0.0,0.0,0.0,0.04,0.0,0.0,0.0,0.04,15.0050919643
1607961676396333396,283,1607961676392359972,smarty200/dvl,-0.00102793019819,0.00166391161964,-0.00403744837896,0.04,0.0,0.0,0.0,0.04,0.0,0.0,0.0,0.04,15.0054938013
1607961676594419546,284,1607961676592611074,smarty200/dvl,-0.00162318045572,-0.00286446485958,0.000388762780081,0.04,0.0,0.0,0.0,0.04,0.0,0.0,0.0,0.04,15.0056660053
1607961676797891654,285,1607961676791763067,smarty200/dvl,-0.000988052017498,-0.0016781028634,0.000346388697349,0.04,0.0,0.0,0.0,0.04,0.0,0.0,0.0,0.04,15.0055375122
1607961676995542639,286,1607961676992460012,smarty200/dvl,-0.00175845711034,-0.000522831661234,-0.00129476544514,0.04,0.0,0.0,0.0,0.04,0.0,0.0,0.0,0.04,15.005166351
1607961677195325080,287,1607961677194603919,smarty200/dvl,-0.000762777219856,-0.00256496704618,-0.00364824697676,0.04,0.0,0.0,0.0,0.04,0.0,0.0,0.0,0.04,15.0047107913
1607961677393046820,288,1607961677391546964,smarty200/dvl,-0.000141145009957,0.000714823892495,0.000357391073572,0.04,0.0,0.0,0.0,0.04,0.0,0.0,0.0,0.04,15.0043562722
1607961677595990457,289,1607961677592530965,smarty200/dvl,0.000658741046435,0.00137984294086,-8.71376638345e-05,0.04,0.0,0.0,0.0,0.04,0.0,0.0,0.0,0.04,15.0042401369
1607961677798589582,290,1607961677792045116,smarty200/dvl,-0.000629988591946,0.00172244845049,0.00176592584698,0.04,0.0,0.0,0.0,0.04,0.0,0.0,0.0,0.04,15.0044043178
1607961677994562318,291,1607961677992923021,smarty200/dvl,0.00175844296682,-0.000504434043959,0.00393277565575,0.04,0.0,0.0,0.0,0.04,0.0,0.0,0.0,0.04,15.0047830077
1607961678193393067,292,1607961678191966056,smarty200/dvl,-0.000423991111909,0.000491646805067,0.0036063283445,0.04,0.0,0.0,0.0,0.04,0.0,0.0,0.0,0.04,15.0052250374
1607961678395328428,293,1607961678393769979,smarty200/dvl,-0.00221814414607,0.0020041630653,0.00187817844705,0.04,0.0,0.0,0.0,0.04,0.0,0.0,0.0,0.04,15.0055497157
1607961678594505972,294,1607961678592077970,smarty200/dvl,-0.000743536434776,0.000880375733384,-0.00444296078954,0.04,0.0,0.0,0.0,0.04,0.0,0.0,0.0,0.04,15.0056219242
1607961678799991080,295,1607961678792299032,smarty200/dvl,0.000951248999989,0.000987806757126,-0.000450052401184,0.04,0.0,0.0,0.0,0.04,0.0,0.0,0.0,0.04,15.005413411
1607961678994387850,296,1607961678992180109,smarty200/dvl,0.00144094875397,0.000993722943181,-0.00239947464816,0.04,0.0,0.0,0.0,0.04,0.0,0.0,0.0,0.04,15.0050156883
1607961679194074845,297,1607961679191813945,smarty200/dvl,0.000693100859119,-0.00231164296129,-0.000931480487291,0.04,0.0,0.0,0.0,0.04,0.0,0.0,0.0,0.04,15.0045957368
1607961679392582199,298,1607961679391623973,smarty200/dvl,-0.00231882501175,0.00195014696509,-0.000809311941827,0.04,0.0,0.0,0.0,0.04,0.0,0.0,0.0,0.04,15.0043219132
1607961679594126801,299,1607961679593086004,smarty200/dvl,-0.00194077353744,0.00178174514288,0.00182082010365,0.04,0.0,0.0,0.0,0.04,0.0,0.0,0.0,0.04,15.004298869
1607961679795489078,300,1607961679791680097,smarty200/dvl,0.00135839642527,0.00159514806534,0.00233553441264,0.04,0.0,0.0,0.0,0.04,0.0,0.0,0.0,0.04,15.0045328891
1607961679994695815,301,1607961679992738008,smarty200/dvl,-0.00262151348842,0.00144575097354,-0.00144100466245,0.04,0.0,0.0,0.0,0.04,0.0,0.0,0.0,0.04,15.0049307916
1607961680194804155,302,1607961680193100929,smarty200/dvl,0.000664458286346,1.70601750797e-05,-0.00145363781541,0.04,0.0,0.0,0.0,0.04,0.0,0.0,0.0,0.04,15.0053324659
1607961680396015033,303,1607961680394104003,smarty200/dvl,0.0018781273684,0.00123066944697,0.001770890589,0.04,0.0,0.0,0.0,0.04,0.0,0.0,0.0,0.04,15.0055725726
1607961680592635940,304,1607961680591484069,smarty200/dvl,-0.00349389914279,-0.00198251830039,-0.00202021679402,0.04,0.0,0.0,0.0,0.04,0.0,0.0,0.0,0.04,15.0055514134
1607961680797693477,305,1607961680792634010,smarty200/dvl,0.0011226270571,0.000482476535234,-0.00335250643162,0.04,0.0,0.0,0.0,0.04,0.0,0.0,0.0,0.04,15.0052806477
1607961680992944283,306,1607961680992012023,smarty200/dvl,-0.00200801126071,-0.00113873334023,-0.000768524616189,0.04,0.0,0.0,0.0,0.04,0.0,0.0,0.0,0.04,15.0048770411
1607961681193685023,307,1607961681192214965,smarty200/dvl,0.00270028561696,8.517841043e-06,-0.00372010180405,0.04,0.0,0.0,0.0,0.04,0.0,0.0,0.0,0.04,15.004507511
1607961681396958166,308,1607961681391779899,smarty200/dvl,-0.000757942727941,-0.00115900508792,-0.00229806904197,0.04,0.0,0.0,0.0,0.04,0.0,0.0,0.0,0.04,15.0043181251
1607961681594063199,309,1607961681591907024,smarty200/dvl,-0.00191221595401,0.000221077826334,0.00059235031592,0.04,0.0,0.0,0.0,0.04,0.0,0.0,0.0,0.04,15.0043801702
1607961681793454654,310,1607961681791845083,smarty200/dvl,-0.00268659695263,0.000708141332004,0.00443760152317,0.04,0.0,0.0,0.0,0.04,0.0,0.0,0.0,0.04,15.0046672716
1607961681995529191,311,1607961681994335889,smarty200/dvl,0.000191608380064,-0.000764145626072,-0.000823903586404,0.04,0.0,0.0,0.0,0.04,0.0,0.0,0.0,0.04,15.0050649045
1607961682194717750,312,1607961682191801071,smarty200/dvl,-0.00153650849421,-0.00259697021611,-0.000861669023265,0.04,0.0,0.0,0.0,0.04,0.0,0.0,0.0,0.04,15.0054117981
1607961682399855172,313,1607961682395800113,smarty200/dvl,0.000474952442928,0.000928023520965,-0.000107925715878,0.04,0.0,0.0,0.0,0.04,0.0,0.0,0.0,0.04,15.0055625816
1607961682592635660,314,1607961682591653108,smarty200/dvl,0.00125794327677,-0.00015243349669,-0.00096197370739,0.04,0.0,0.0,0.0,0.04,0.0,0.0,0.0,0.04,15.0054603047
1607961682792142083,315,1607961682791507005,smarty200/dvl,0.00139582410307,-0.000961519382379,-0.00275941897585,0.04,0.0,0.0,0.0,0.04,0.0,0.0,0.0,0.04,15.0051460853
1607961682993498333,316,1607961682991772890,smarty200/dvl,0.00131329046177,0.00205866648147,-0.00229597613411,0.04,0.0,0.0,0.0,0.04,0.0,0.0,0.0,0.04,15.0047553312
1607961683194043849,317,1607961683192109107,smarty200/dvl,-0.00180703707738,-0.000257420228264,-8.1122314623e-05,0.04,0.0,0.0,0.0,0.04,0.0,0.0,0.0,0.04,15.0044473255
1607961683393781441,318,1607961683392363071,smarty200/dvl,-0.00188168643723,0.00143607920629,0.000999984111705,0.04,0.0,0.0,0.0,0.04,0.0,0.0,0.0,0.04,15.004342244
1607961683594344373,319,1607961683592416048,smarty200/dvl,0.0026880402946,-0.00101221589751,0.00176150773205,0.04,0.0,0.0,0.0,0.04,0.0,0.0,0.0,0.04,15.0044785601
1607961683799161791,320,1607961683793329954,smarty200/dvl,-0.000504720766254,-0.000553547238886,0.00158185868141,0.04,0.0,0.0,0.0,0.04,0.0,0.0,0.0,0.04,15.0048011292
1607961683996876540,321,1607961683992264986,smarty200/dvl,0.00108371336552,0.000290896173555,0.00330934874783,0.04,0.0,0.0,0.0,0.04,0.0,0.0,0.0,0.04,15.005180635
1607961684198438220,322,1607961684191811084,smarty200/dvl,-0.000692265255757,-0.00351952486536,0.00309618254122,0.04,0.0,0.0,0.0,0.04,0.0,0.0,0.0,0.04,15.0054620682
1607961684396268894,323,1607961684392218112,smarty200/dvl,0.000241564736358,0.00146612082057,0.00126986664347,0.04,0.0,0.0,0.0,0.04,0.0,0.0,0.0,0.04,15.0055288428
1607961684594105120,324,1607961684592691898,smarty200/dvl,0.00114314592808,0.00232646732184,-0.000668730661402,0.04,0.0,0.0,0.0,0.04,0.0,0.0,0.0,0.04,15.0053548152
1607961684797901960,325,1607961684792541027,smarty200/dvl,0.00036383118069,0.000795161148403,-0.00124339225497,0.04,0.0,0.0,0.0,0.04,0.0,0.0,0.0,0.04,15.0050159652
1607961684994553288,326,1607961684993175983,smarty200/dvl,0.00113355984625,-0.00299382939274,-0.0011103524104,0.04,0.0,0.0,0.0,0.04,0.0,0.0,0.0,0.04,15.004654243
1607961685195688780,327,1607961685194922924,smarty200/dvl,-0.00216179732473,-0.000824269798406,-0.00119127092857,0.04,0.0,0.0,0.0,0.04,0.0,0.0,0.0,0.04,15.0044151007
1607961685392309746,328,1607961685391498088,smarty200/dvl,0.000831868200983,0.00118724521776,0.000582962265534,0.04,0.0,0.0,0.0,0.04,0.0,0.0,0.0,0.04,15.0043906856
1607961685595646557,329,1607961685593383073,smarty200/dvl,0.00200845426663,-0.00168138531652,0.00157260997846,0.04,0.0,0.0,0.0,0.04,0.0,0.0,0.0,0.04,15.0045882739
1607961685797487519,330,1607961685792551040,smarty200/dvl,0.00103239868766,0.00169024596437,0.00110025660534,0.04,0.0,0.0,0.0,0.04,0.0,0.0,0.0,0.04,15.0049286345
1607961685995615373,331,1607961685992626905,smarty200/dvl,-0.000204460583157,0.00253377849391,0.00243085034129,0.04,0.0,0.0,0.0,0.04,0.0,0.0,0.0,0.04,15.0052744725
1607961686195864311,332,1607961686191971063,smarty200/dvl,0.000430426781703,-0.000425455941672,-0.00083723747881,0.04,0.0,0.0,0.0,0.04,0.0,0.0,0.0,0.04,15.0054837326
1607961686395200601,333,1607961686392446041,smarty200/dvl,-0.000176892579494,-0.00125016180607,-0.00202435303857,0.04,0.0,0.0,0.0,0.04,0.0,0.0,0.0,0.04,15.0054699539
1607961686596127918,334,1607961686591649055,smarty200/dvl,0.00035165278421,0.000109763415402,-2.8707744196e-05,0.04,0.0,0.0,0.0,0.04,0.0,0.0,0.0,0.04,15.0052412053
1607961686799922636,335,1607961686792032957,smarty200/dvl,0.0021015497935,0.00203380999652,-0.000757870330395,0.04,0.0,0.0,0.0,0.04,0.0,0.0,0.0,0.04,15.0048956876
1607961686997099965,336,1607961686994431018,smarty200/dvl,0.000672118965286,0.000594807136847,0.000282400189615,0.04,0.0,0.0,0.0,0.04,0.0,0.0,0.0,0.04,15.0045762
1607961687195103393,337,1607961687193403005,smarty200/dvl,0.00170781932615,0.00185080976326,-0.0009929599885,0.04,0.0,0.0,0.0,0.04,0.0,0.0,0.0,0.04,15.004409593
1607961687394377723,338,1607961687392307043,smarty200/dvl,-5.88831192007e-05,-0.000752992717446,0.00283779475738,0.04,0.0,0.0,0.0,0.04,0.0,0.0,0.0,0.04,15.0044591527
1607961687594515908,339,1607961687592231988,smarty200/dvl,-0.000463289603404,0.000380723890958,0.00144593424759,0.04,0.0,0.0,0.0,0.04,0.0,0.0,0.0,0.04,15.0047035195
1607961687795088243,340,1607961687792769908,smarty200/dvl,4.94838288845e-05,0.000408317046422,0.00188029995061,0.04,0.0,0.0,0.0,0.04,0.0,0.0,0.0,0.04,15.0050446968
1607961687993211964,341,1607961687991911888,smarty200/dvl,0.000757023420115,0.00080265743182,0.00301242169167,0.04,0.0,0.0,0.0,0.04,0.0,0.0,0.0,0.04,15.0053441919
1607961688194977155,342,1607961688192080974,smarty200/dvl,0.00093964660531,-0.000380568829743,-0.00134078807015,0.04,0.0,0.0,0.0,0.04,0.0,0.0,0.0,0.04,15.0054785353
1607961688396688454,343,1607961688392653942,smarty200/dvl,-7.81904350243e-05,0.00112877908304,0.00101873950201,0.04,0.0,0.0,0.0,0.04,0.0,0.0,0.0,0.04,15.0053928314
1607961688595587231,344,1607961688592597007,smarty200/dvl,0.00217928109446,-0.00103827968277,-0.00197859837612,0.04,0.0,0.0,0.0,0.04,0.0,0.0,0.0,0.04,15.0051254733
1607961688798209765,345,1607961688793591976,smarty200/dvl,-0.000937753840049,-0.000471455431245,-0.00228908369246,0.04,0.0,0.0,0.0,0.04,0.0,0.0,0.0,0.04,15.0047896605
1607961688994509380,346,1607961688991697072,smarty200/dvl,-0.000314788927361,0.00253647004529,0.000795724460396,0.04,0.0,0.0,0.0,0.04,0.0,0.0,0.0,0.04,15.0045223965
1607961689195469455,347,1607961689192332983,smarty200/dvl,0.000756622241517,0.000876158267447,0.00137086609183,0.04,0.0,0.0,0.0,0.04,0.0,0.0,0.0,0.04,15.0044285509
1607961689395843521,348,1607961689391887903,smarty200/dvl,-0.000568299116277,0.00166020650134,-0.000277303113194,0.04,0.0,0.0,0.0,0.04,0.0,0.0,0.0,0.04,15.0045428589
1607961689596648651,349,1607961689592504024,smarty200/dvl,-0.000785787852168,-0.000103959748637,0.00275767527385,0.04,0.0,0.0,0.0,0.04,0.0,0.0,0.0,0.04,15.0048187253
1607961689796401403,350,1607961689792377948,smarty200/dvl,-0.000206498969258,0.000532492743437,0.00381803136157,0.04,0.0,0.0,0.0,0.04,0.0,0.0,0.0,0.04,15.005145147
1607961689995469972,351,1607961689992206096,smarty200/dvl,-0.00197619603245,-0.0017531414276,0.00207324045897,0.04,0.0,0.0,0.0,0.04,0.0,0.0,0.0,0.04,15.0053888678
1607961690193722496,352,1607961690191989898,smarty200/dvl,0.000496200640242,0.0022104872533,-0.000800294336679,0.04,0.0,0.0,0.0,0.04,0.0,0.0,0.0,0.04,15.0054493129
1607961690396304307,353,1607961690392141103,smarty200/dvl,0.00272890084889,-0.00155438252356,-0.00227564536411,0.04,0.0,0.0,0.0,0.04,0.0,0.0,0.0,0.04,15.0053028399
1607961690593685917,354,1607961690591774940,smarty200/dvl,0.00235958283479,0.00188459666282,0.000916659523634,0.04,0.0,0.0,0.0,0.04,0.0,0.0,0.0,0.04,15.005013101
1607961690797478690,355,1607961690791796922,smarty200/dvl,6.61290720829e-05,-0.00187080522834,-0.00315989959203,0.04,0.0,0.0,0.0,0.04,0.0,0.0,0.0,0.04,15.0047012136
1607961690995640244,356,1607961690991991043,smarty200/dvl,-0.000453513965225,0.000485537497751,-0.000442476887398,0.04,0.0,0.0,0.0,0.04,0.0,0.0,0.0,0.04,15.0044928741
1607961691195035163,357,1607961691192116022,smarty200/dvl,0.000100767122272,0.000811682763627,0.000231379342172,0.04,0.0,0.0,0.0,0.04,0.0,0.0,0.0,0.04,15.0044688908
1607961691395283355,358,1607961691392498016,smarty200/dvl,-0.000181224338508,0.000204409925344,-0.00255754600617,0.04,0.0,0.0,0.0,0.04,0.0,0.0,0.0,0.04,15.0046367601
1607961691596506413,359,1607961691592396974,smarty200/dvl,0.000270991578119,-0.00146121649895,0.00438600408447,0.04,0.0,0.0,0.0,0.04,0.0,0.0,0.0,0.04,15.004928769
1607961691794955357,360,1607961691791502952,smarty200/dvl,0.000968615832667,-0.000621729484354,0.00163756178758,0.04,0.0,0.0,0.0,0.04,0.0,0.0,0.0,0.04,15.0052268677
1607961691993799272,361,1607961691992472887,smarty200/dvl,-0.00166124352987,0.00184763707641,-9.37832888884e-05,0.04,0.0,0.0,0.0,0.04,0.0,0.0,0.0,0.04,15.0054088171
1607961692198814593,362,1607961692197472095,smarty200/dvl,-0.000262347905949,-0.00103785267963,0.00212424504657,0.04,0.0,0.0,0.0,0.04,0.0,0.0,0.0,0.04,15.0053997588
1607961692393661361,363,1607961692391861915,smarty200/dvl,-0.000267198947531,-0.000111884430162,0.000856028368965,0.04,0.0,0.0,0.0,0.04,0.0,0.0,0.0,0.04,15.0052054059
1607961692594514778,364,1607961692593344926,smarty200/dvl,-0.000715479199781,0.00319012638048,-0.0017498266589,0.04,0.0,0.0,0.0,0.04,0.0,0.0,0.0,0.04,15.0049088556
1607961692792217154,365,1607961692791336059,smarty200/dvl,0.00032301322707,0.000355397235698,-0.000710157255891,0.04,0.0,0.0,0.0,0.04,0.0,0.0,0.0,0.04,15.0046325703
1607961692995802401,366,1607961692992336034,smarty200/dvl,-0.00105448016412,-0.000336255161495,-0.00191858625291,0.04,0.0,0.0,0.0,0.04,0.0,0.0,0.0,0.04,15.0044866323
1607961693197592223,367,1607961693192147970,smarty200/dvl,0.00190026987172,0.000617187556614,0.000814019880852,0.04,0.0,0.0,0.0,0.04,0.0,0.0,0.0,0.04,15.0045268868
1607961693396661503,368,1607961693392868041,smarty200/dvl,0.00232988590126,-0.000986831330791,0.00215898174169,0.04,0.0,0.0,0.0,0.04,0.0,0.0,0.0,0.04,15.0047357849
1607961693594340923,369,1607961693591763973,smarty200/dvl,-0.0015549070732,-0.00017403147527,0.00174561077893,0.04,0.0,0.0,0.0,0.04,0.0,0.0,0.0,0.04,15.0050291754
1607961693805377175,370,1607961693793945074,smarty200/dvl,-0.000177154267244,0.00136752226038,0.00114425670094,0.04,0.0,0.0,0.0,0.04,0.0,0.0,0.0,0.04,15.005287864
1607961693997832238,371,1607961693991841077,smarty200/dvl,-0.00089329643883,-0.000253670084428,-0.000399606708377,0.04,0.0,0.0,0.0,0.04,0.0,0.0,0.0,0.04,15.0054054818
1607961694196831329,372,1607961694192085981,smarty200/dvl,0.00080612099762,-0.00139746486531,-0.000614077573058,0.04,0.0,0.0,0.0,0.04,0.0,0.0,0.0,0.04,15.0053341657
1607961694396969360,373,1607961694392128944,smarty200/dvl,-0.000996386262919,-0.000123441725894,-0.00253633030661,0.04,0.0,0.0,0.0,0.04,0.0,0.0,0.0,0.04,15.0051057518
1607961694594828721,374,1607961694592396020,smarty200/dvl,-0.000716329878185,0.00166953949429,0.000341901604476,0.04,0.0,0.0,0.0,0.04,0.0,0.0,0.0,0.04,15.0048166513
1607961694800052789,375,1607961694796318054,smarty200/dvl,0.00170642344096,-3.91376176595e-05,0.0013168393209,0.04,0.0,0.0,0.0,0.04,0.0,0.0,0.0,0.04,15.0045477447
1607961694995562007,376,1607961694992093086,smarty200/dvl,0.000750153759032,0.000717250309315,0.000914709457961,0.04,0.0,0.0,0.0,0.04,0.0,0.0,0.0,0.04,15.0045017671
1607961695194748960,377,1607961695192039012,smarty200/dvl,-0.00136475933707,0.000560659734487,0.00201381229575,0.04,0.0,0.0,0.0,0.04,0.0,0.0,0.0,0.04,15.0045983717
1607961695394266785,378,1607961695392410993,smarty200/dvl,-0.000118216897294,0.00051711002698,0.000743461846112,0.04,0.0,0.0,0.0,0.04,0.0,0.0,0.0,0.04,15.0048350548
1607961695594158250,379,1607961695592502117,smarty200/dvl,-4.74814879698e-05,-0.00243738501832,0.00298071922371,0.04,0.0,0.0,0.0,0.04,0.0,0.0,0.0,0.04,15.0051162759
1607961695799771863,380,1607961695793112039,smarty200/dvl,0.00103264439927,-0.000995091914775,0.00261398327681,0.04,0.0,0.0,0.0,0.04,0.0,0.0,0.0,0.04,15.0053272733
1607961695996079190,381,1607961695991888999,smarty200/dvl,0.000200453552651,-0.00084121526076,0.000793343939327,0.04,0.0,0.0,0.0,0.04,0.0,0.0,0.0,0.04,15.0053812601
1607961696193646776,382,1607961696191885948,smarty200/dvl,0.00282166685546,-0.00102916539292,-0.00203510980711,0.04,0.0,0.0,0.0,0.04,0.0,0.0,0.0,0.04,15.0052571563
1607961696394383217,383,1607961696392229080,smarty200/dvl,0.00267273884782,-0.000256448056743,-3.67488096766e-05,0.04,0.0,0.0,0.0,0.04,0.0,0.0,0.0,0.04,15.0050086702
1607961696595421941,384,1607961696591994047,smarty200/dvl,-0.00322972508653,-0.000520904844431,-0.000919538915439,0.04,0.0,0.0,0.0,0.04,0.0,0.0,0.0,0.04,15.0047394673
1607961696798150620,385,1607961696791968107,smarty200/dvl,0.000333792138163,0.00274119688311,-0.00283781067385,0.04,0.0,0.0,0.0,0.04,0.0,0.0,0.0,0.04,15.0045582281
1607961696995420618,386,1607961696991456031,smarty200/dvl,-0.000774559062637,0.000714560896192,0.00151173357261,0.04,0.0,0.0,0.0,0.04,0.0,0.0,0.0,0.04,15.0045356282
1607961697195041733,387,1607961697192171096,smarty200/dvl,0.000390140039407,0.000616589462181,0.00112600615159,0.04,0.0,0.0,0.0,0.04,0.0,0.0,0.0,0.04,15.0046789461
1607961697394601313,388,1607961697392191886,smarty200/dvl,-0.00168511671489,-0.00335435111219,-0.000192647232055,0.04,0.0,0.0,0.0,0.04,0.0,0.0,0.0,0.04,15.0049300842
1607961697596210677,389,1607961697593271017,smarty200/dvl,0.00168643675189,0.00332273873801,0.00501651068337,0.04,0.0,0.0,0.0,0.04,0.0,0.0,0.0,0.04,15.0051873196
1607961697797460075,390,1607961697792421102,smarty200/dvl,-0.000784839493051,0.000135011854632,0.00111676378078,0.04,0.0,0.0,0.0,0.04,0.0,0.0,0.0,0.04,15.005345315
1607961697993415387,391,1607961697991997957,smarty200/dvl,0.000264495456193,0.000837474725728,0.00348891344316,0.04,0.0,0.0,0.0,0.04,0.0,0.0,0.0,0.04,15.0053393045
1607961698196952322,392,1607961698192553043,smarty200/dvl,0.000512097958796,0.00153033973071,-0.0019685514091,0.04,0.0,0.0,0.0,0.04,0.0,0.0,0.0,0.04,15.0051734265
1607961698394331761,393,1607961698392091989,smarty200/dvl,-0.00209957577446,-0.00279601422511,-0.000364125321317,0.04,0.0,0.0,0.0,0.04,0.0,0.0,0.0,0.04,15.0049183483
1607961698596779442,394,1607961698592470884,smarty200/dvl,-0.00216930330797,-0.000512112915149,-0.000817969171756,0.04,0.0,0.0,0.0,0.04,0.0,0.0,0.0,0.04,15.0046793166
1607961698796774207,395,1607961698791907072,smarty200/dvl,-0.000273081855138,-0.0010398988601,0.000283777220345,0.04,0.0,0.0,0.0,0.04,0.0,0.0,0.0,0.04,15.0045518382
1607961698994911467,396,1607961698991518020,smarty200/dvl,0.000900837437568,0.0010837943917,0.00464460149278,0.04,0.0,0.0,0.0,0.04,0.0,0.0,0.0,0.04,15.0045849899
1607961699194682970,397,1607961699192480087,smarty200/dvl,0.000316449559896,3.28853818908e-05,0.00130926271632,0.04,0.0,0.0,0.0,0.04,0.0,0.0,0.0,0.04,15.0047641825
1607961699395179963,398,1607961699392266988,smarty200/dvl,0.00236815531362,0.00130529699616,-0.000808487544929,0.04,0.0,0.0,0.0,0.04,0.0,0.0,0.0,0.04,15.0050169538
1607961699596482648,399,1607961699591988086,smarty200/dvl,-0.000833335993787,-2.55036599604e-05,-0.00026349497163,0.04,0.0,0.0,0.0,0.04,0.0,0.0,0.0,0.04,15.005240533
1607961699799080651,400,1607961699792390108,smarty200/dvl,0.00112503742638,0.00237294271498,-0.00239011842702,0.04,0.0,0.0,0.0,0.04,0.0,0.0,0.0,0.04,15.0053431884
1607961699993986785,401,1607961699991380929,smarty200/dvl,0.000557012509975,0.000674993176726,-0.00169570929798,0.04,0.0,0.0,0.0,0.04,0.0,0.0,0.0,0.04,15.0052832979
1607961700192922090,402,1607961700191879987,smarty200/dvl,0.000656252477397,0.00162208106257,-0.00203742752352,0.04,0.0,0.0,0.0,0.04,0.0,0.0,0.0,0.04,15.0050875121
1607961700394097173,403,1607961700391874074,smarty200/dvl,-0.000204682849065,0.00140363236765,0.00061968293381,0.04,0.0,0.0,0.0,0.04,0.0,0.0,0.0,0.04,15.0048382411
1607961700595595879,404,1607961700592116117,smarty200/dvl,-0.000823378034641,0.00148688353745,0.000307201771708,0.04,0.0,0.0,0.0,0.04,0.0,0.0,0.0,0.04,15.0046372609
1607961700795529791,405,1607961700792557954,smarty200/dvl,-0.001004711274,0.00179599658219,-0.00209101970435,0.04,0.0,0.0,0.0,0.04,0.0,0.0,0.0,0.04,15.0044602588
1607961700992715672,406,1607961700991767883,smarty200/dvl,-0.000121608139307,0.0113709446819,-0.0128664793549,0.04,0.0,0.0,0.0,0.04,0.0,0.0,0.0,0.04,15.0032459572
1607961701194993768,407,1607961701191550016,smarty200/dvl,-0.00511915181643,0.0390684881114,-0.056878817874,0.04,0.0,0.0,0.0,0.04,0.0,0.0,0.0,0.04,14.9970965906
1607961701392608261,408,1607961701391617059,smarty200/dvl,0.00931641160193,0.0669652446335,-0.112069961691,0.04,0.0,0.0,0.0,0.04,0.0,0.0,0.0,0.04,14.9806899537
1607961701594702100,409,1607961701592065095,smarty200/dvl,0.0219755183153,0.0815388815465,-0.162144701089,0.04,0.0,0.0,0.0,0.04,0.0,0.0,0.0,0.04,14.9534889973
1607961701792575871,410,1607961701791987895,smarty200/dvl,0.0365984082585,0.0929333921034,-0.204148429845,0.04,0.0,0.0,0.0,0.04,0.0,0.0,0.0,0.04,14.916887845
1607961701994835005,411,1607961701992088079,smarty200/dvl,0.042764323722,0.0942471894016,-0.237155303037,0.04,0.0,0.0,0.0,0.04,0.0,0.0,0.0,0.04,14.8727229692
1607961702194603333,412,1607961702191608905,smarty200/dvl,0.046559541581,0.0891415330022,-0.263671103511,0.04,0.0,0.0,0.0,0.04,0.0,0.0,0.0,0.04,14.8227721449
1607961702393046258,413,1607961702391993045,smarty200/dvl,0.0464249237844,0.0830584992074,-0.27873222612,0.04,0.0,0.0,0.0,0.04,0.0,0.0,0.0,0.04,14.7685525593
1607961702594520198,414,1607961702592561006,smarty200/dvl,0.0498486714074,0.0792091303154,-0.290899935345,0.04,0.0,0.0,0.0,0.04,0.0,0.0,0.0,0.04,14.7112651025
1607961702795155709,415,1607961702792937040,smarty200/dvl,0.046897617389,0.0734206098168,-0.302939993982,0.04,0.0,0.0,0.0,0.04,0.0,0.0,0.0,0.04,14.6518138879
1607961702995235902,416,1607961702992506027,smarty200/dvl,0.0504305620578,0.0695999056311,-0.311137426658,0.04,0.0,0.0,0.0,0.04,0.0,0.0,0.0,0.04,14.5908567048
1607961703194897031,417,1607961703192893981,smarty200/dvl,0.0512359110329,0.0659646817194,-0.314159988052,0.04,0.0,0.0,0.0,0.04,0.0,0.0,0.0,0.04,14.5288798278
1607961703392074501,418,1607961703391520023,smarty200/dvl,0.0497631021624,0.0596484142139,-0.312385862917,0.04,0.0,0.0,0.0,0.04,0.0,0.0,0.0,0.04,14.4664222168
1607961703593619370,419,1607961703592009067,smarty200/dvl,0.0504523736163,0.0575974297006,-0.310933041873,0.04,0.0,0.0,0.0,0.04,0.0,0.0,0.0,0.04,14.4040303648
1607961703795301444,420,1607961703792399883,smarty200/dvl,0.0522931779541,0.0543477480491,-0.308155901678,0.04,0.0,0.0,0.0,0.04,0.0,0.0,0.0,0.04,14.3420711633
